City_ID,City,Lat,Lng,Max Temp,Humidity,Cloudiness,Wind Speed,Country,Date
0,komsomolskiy,40.4272,71.7189,54.32,71,75,4.61,UZ,1680749353
1,olafsvik,64.8945,-23.7142,38.75,80,100,7.34,IS,1680749372
2,brookhaven,31.5791,-90.4407,73.8,87,100,6.49,US,1680749351
3,cape town,-33.9258,18.4232,71.11,73,0,3.44,ZA,1680749186
4,batagay,67.6333,134.6333,2.26,83,99,4.21,RU,1680749378
5,baiyin,36.5583,104.2081,40.06,31,0,6.8,CN,1680749378
6,turbat,26.0023,63.044,75.52,49,0,0.43,PK,1680749378
7,brejo santo,-7.4933,-38.9872,73.63,72,100,2.53,BR,1680749378
8,ushuaia,-54.8,-68.3,42.46,61,0,5.75,AR,1680749217
9,bom jardim,-7.7958,-35.5872,69.49,91,89,1.92,BR,1680749378
10,souillac,-20.5167,57.5167,73.78,94,20,2.3,MU,1680749354
11,punta arenas,-53.15,-70.9167,41.11,65,20,5.75,CL,1680749378
12,matagami,49.7502,-77.6328,24.91,80,100,21.85,CA,1680749377
13,albany,42.6001,-73.9662,50.9,88,100,4.0,US,1680749327
14,severo-kurilsk,50.6789,156.125,33.26,63,4,11.95,RU,1680749336
15,east london,-33.0153,27.9116,65.34,73,0,15.48,ZA,1680749331
16,vestmannaeyjar,63.4427,-20.2734,41.2,67,67,7.56,IS,1680749339
17,vaini,-21.2,-175.2,86.16,70,20,12.66,TO,1680749332
18,hasaki,35.7333,140.8333,69.22,69,100,27.18,JP,1680749340
19,tuktoyaktuk,69.4541,-133.0374,3.2,85,100,9.22,CA,1680749327
20,qaanaaq,77.484,-69.3632,-17.68,75,36,6.08,GL,1680749338
21,dongsheng,39.8161,109.9776,37.89,37,0,16.46,CN,1680749379
22,sovetskiy,61.3614,63.5842,30.36,90,63,8.46,RU,1680749379
23,ngunguru,-35.6167,174.5,61.83,94,100,17.98,NZ,1680749379
24,panara,22.0667,78.55,84.06,14,80,5.68,IN,1680749379
25,mataura,-46.1927,168.8643,49.15,64,95,9.42,NZ,1680749328
26,castro,-24.7911,-50.0119,60.53,94,82,9.44,BR,1680749328
27,hervey bay,-25.2986,152.8535,78.67,59,74,9.73,AU,1680749379
28,mudanjiang,44.5833,129.6,38.64,96,100,1.86,CN,1680749379
29,lebu,-37.6167,-73.65,57.27,95,100,5.28,CL,1680749379
30,te anau,-45.4167,167.7167,51.37,51,90,4.09,NZ,1680749351
31,east liverpool,40.6187,-80.5773,65.07,95,100,8.79,US,1680749272
32,otavi,-19.65,17.3333,66.02,46,26,3.15,NA,1680749380
33,busselton,-33.65,115.3333,70.2,53,2,5.39,AU,1680749331
34,puerto ayora,-0.7393,-90.3518,77.56,98,100,3.0,EC,1680749332
35,rawson,-43.3002,-65.1023,69.51,42,96,9.78,AR,1680749336
36,geeste,52.6,7.2667,32.9,69,0,6.04,DE,1680749380
37,port alfred,-33.5906,26.891,65.48,73,0,14.67,ZA,1680749380
38,okhotsk,59.3833,143.3,24.13,67,16,14.99,RU,1680749380
39,arua,3.0201,30.9111,64.54,82,88,5.7,UG,1680749380
40,kasongo-lunda,-6.4667,16.8167,68.72,99,100,1.66,CD,1680749374
41,victoria,22.2855,114.1577,80.65,91,31,1.01,HK,1680749279
42,chokurdakh,70.6333,147.9167,2.73,93,61,3.47,RU,1680749334
43,hobyo,5.3505,48.5268,82.29,69,13,9.06,SO,1680749380
44,rikitea,-23.1203,-134.9692,78.49,69,36,7.45,PF,1680749326
45,mahanoro,-19.9,48.8,73.65,92,100,3.33,MG,1680749380
46,namibe,-15.1961,12.1522,78.96,81,100,4.79,AO,1680749381
47,norman wells,65.282,-126.8329,26.64,54,40,4.61,CA,1680749331
48,tasiilaq,65.6145,-37.6368,23.16,94,100,12.73,GL,1680749343
49,iqaluit,63.7506,-68.5145,-2.47,78,75,10.36,CA,1680749352
50,mogadishu,2.0371,45.3438,82.02,76,98,9.82,SO,1680749352
51,xingyi,24.1877,102.817,75.22,26,4,9.22,CN,1680749381
52,verkhnyaya inta,65.9811,60.3094,-8.82,87,7,4.72,RU,1680749381
53,faanui,-16.4833,-151.75,83.32,67,11,6.22,PF,1680749333
54,walcourt,50.2539,4.4352,42.19,66,75,3.44,BE,1680749381
55,chuy,-33.6971,-53.4616,63.63,66,80,7.83,UY,1680749336
56,dedovichi,57.5517,29.9502,36.25,91,100,10.42,RU,1680749381
57,kodiak,57.79,-152.4072,42.31,61,0,12.66,US,1680749334
58,georgetown,5.4112,100.3354,82.33,83,20,0.0,MY,1680749101
59,barrow,71.2906,-156.7887,-3.98,65,100,9.22,US,1680749343
60,hilo,19.7297,-155.09,78.53,76,40,10.36,US,1680749326
61,jamestown,42.097,-79.2353,63.99,87,100,12.66,US,1680749382
62,hami,42.8,93.45,47.53,15,0,1.1,CN,1680749327
63,gboko,7.3179,8.9951,81.79,70,99,13.87,NG,1680749382
64,bluff,-46.6,168.3333,49.44,65,96,23.35,NZ,1680749331
65,kruisfontein,-34.0033,24.7314,64.78,47,2,6.17,ZA,1680749340
66,arlit,18.7369,7.3853,80.38,9,43,8.3,NE,1680749382
67,nuuk,64.1835,-51.7216,25.41,54,33,39.12,GL,1680749382
68,cidreira,-30.1811,-50.2056,71.69,64,100,12.46,BR,1680749382
69,hithadhoo,-0.6,73.0833,82.69,70,49,5.59,MV,1680749336
70,zaoyang,32.1272,112.7542,59.49,51,100,15.17,CN,1680749382
71,hobart,-42.8794,147.3294,68.22,58,20,10.36,AU,1680749329
72,airai,-8.9266,125.4092,69.84,68,100,2.59,TL,1680749330
73,chicama,-7.8447,-79.1469,79.34,75,86,4.9,PE,1680749382
74,nikolskoye,59.7035,30.7861,35.49,97,100,5.14,RU,1680749332
75,lavrentiya,65.5833,-171.0,0.0,90,44,1.88,RU,1680749351
76,avarua,-21.2078,-159.775,80.65,69,75,3.44,CK,1680749383
77,yellowknife,62.456,-114.3525,30.72,55,75,12.66,CA,1680749328
78,klaksvik,62.2266,-6.589,45.52,88,68,7.99,FO,1680749331
79,nipawin,53.3668,-104.0009,19.44,58,0,6.91,CA,1680749383
80,new norfolk,-42.7826,147.0587,67.87,45,96,1.01,AU,1680749329
81,lajas,18.05,-67.0593,75.85,61,99,3.0,PR,1680749383
82,tuatapere,-46.1333,167.6833,50.34,66,90,12.71,NZ,1680749365
83,chingola,-12.529,27.8838,60.69,98,100,3.8,ZM,1680749383
84,palestine,31.9216,35.2033,49.95,92,65,7.58,PS,1680749383
85,codrington,-38.2667,141.9667,75.6,39,100,0.92,AU,1680749330
86,la orilla,17.9833,-102.2333,75.25,82,67,4.85,MX,1680749383
87,tiznit,29.5833,-9.5,55.02,90,95,4.74,MA,1680749338
88,meulaboh,4.1363,96.1285,81.63,72,88,4.16,ID,1680749360
89,butaritari,3.0707,172.7902,82.33,80,98,18.23,KI,1680749337
90,manjacaze,-24.7117,33.8828,64.09,98,10,6.04,MZ,1680749383
91,westerland,54.9079,8.3033,30.94,100,9,4.61,DE,1680749232
92,samarai,-10.6167,150.6667,84.79,73,86,10.33,PG,1680749360
93,moindou,-21.6924,165.677,81.28,69,55,15.26,NC,1680749384
94,ribeira grande,38.5167,-28.7,57.78,90,82,1.99,PT,1680749329
95,atuona,-9.8,-139.0333,81.25,71,14,15.28,PF,1680749330
96,mount isa,-20.7333,139.5,94.77,17,1,5.75,AU,1680749335
97,kapaa,22.0752,-159.319,80.58,81,20,16.11,US,1680749326
98,mar del plata,-38.0023,-57.5575,67.08,81,20,17.0,AR,1680749326
99,ilo,-17.6394,-71.3375,72.34,86,1,3.42,PE,1680749384
100,pahrump,36.2083,-115.9839,55.26,19,5,3.0,US,1680749384
101,mayo,38.8876,-76.5119,78.26,79,0,17.27,US,1680749384
102,ponta do sol,32.6667,-17.1,63.23,32,6,4.85,PT,1680749332
103,semme,46.1963,1.5007,43.21,78,100,2.55,FR,1680749384
104,khatanga,71.9667,102.5,-16.42,93,82,10.16,RU,1680749384
105,ancud,-41.8697,-73.8203,51.8,90,98,6.55,CL,1680749343
106,natal,-5.795,-35.2094,75.85,94,20,4.61,BR,1680749384
107,ginda,30.6945,78.4932,60.87,25,86,2.13,IN,1680749385
108,nome,64.5011,-165.4064,6.12,61,0,4.61,US,1680749334
109,hermanus,-34.4187,19.2345,62.8,61,0,8.48,ZA,1680749343
110,waipawa,-41.4122,175.5153,62.92,69,100,9.24,NZ,1680749385
111,shimoda,34.6667,138.95,66.56,80,100,16.69,JP,1680749364
112,vila franca do campo,37.7167,-25.4333,57.61,90,94,0.92,PT,1680749371
113,anicuns,-16.4611,-49.9617,65.1,93,8,2.39,BR,1680749385
114,sobolevo,54.4299,31.8996,41.14,91,79,13.06,RU,1680749385
115,staraya russa,57.9944,31.3608,39.45,81,100,9.13,RU,1680749385
116,mao,39.8885,4.2658,46.96,93,0,3.44,ES,1680749385
117,havoysund,70.9963,24.6622,37.63,83,100,10.85,NO,1680749385
118,rapid valley,44.0625,-103.1463,23.63,75,0,6.91,US,1680749385
119,dikson,73.5069,80.5464,-22.9,97,75,8.14,RU,1680749327
120,tula,54.2044,37.6111,43.63,87,100,13.04,RU,1680749385
121,aksha,50.2814,113.2867,25.0,27,3,18.19,RU,1680749385
122,ahipara,-35.1667,173.1667,60.26,92,100,11.3,NZ,1680749385
123,son la,21.3167,103.9,91.8,20,7,0.58,VN,1680749386
124,tiksi,71.6872,128.8694,-3.23,83,95,11.3,RU,1680749332
125,beringovskiy,63.05,179.3167,20.73,87,100,2.73,RU,1680749342
126,saint-philippe,-21.3585,55.7679,74.79,81,44,7.85,RE,1680749336
127,pokhara,28.2333,83.9833,76.17,27,0,2.91,NP,1680749386
128,rio sereno,8.8167,-82.8667,64.98,89,99,5.14,PA,1680749386
129,gushikawa,26.3544,127.8686,76.59,71,40,13.8,JP,1680749369
130,mullovka,54.2,49.4,40.82,88,4,9.89,RU,1680749386
131,vao,-22.6667,167.4833,77.31,81,24,25.61,NC,1680749350
132,dubti,11.7361,41.0853,79.83,69,34,8.23,ET,1680749386
133,mahebourg,-20.4081,57.7,75.25,94,20,2.3,MU,1680749336
134,jizan,17.3333,42.6667,83.34,66,50,1.57,SA,1680749386
135,somerville,42.3876,-71.0995,42.64,90,100,9.22,US,1680749275
136,padang,-0.9492,100.3543,84.25,67,92,3.04,ID,1680749340
137,havre-saint-pierre,50.2334,-63.5986,28.4,54,100,3.44,CA,1680749349
138,lompoc,34.6391,-120.4579,53.94,81,0,17.27,US,1680749386
139,xining,36.6167,101.7667,36.7,19,5,2.35,CN,1680749353
140,arraial do cabo,-22.9661,-42.0278,75.56,84,11,2.59,BR,1680749328
141,kesova gora,57.5836,37.2922,35.64,89,100,10.07,RU,1680749387
142,cabo san lucas,22.8909,-109.9124,71.51,73,40,4.61,MX,1680749062
143,mayor pablo lagerenza,-19.9309,-60.7718,69.28,96,100,6.15,PY,1680749387
144,sirjan,29.452,55.6814,55.92,35,0,7.02,IR,1680749387
145,tateyama,34.9833,139.8667,67.93,68,75,17.27,JP,1680749387
146,anloga,5.7947,0.8973,81.41,82,94,11.03,GH,1680749387
147,rezekne,56.5,27.3167,33.58,97,100,7.96,LV,1680749387
148,bengkulu,-3.8004,102.2655,81.5,68,79,3.62,ID,1680749328
149,luderitz,-26.6481,15.1594,65.01,74,51,4.18,NA,1680749348
150,makinsk,52.6292,70.4169,41.94,63,6,7.61,KZ,1680749387
151,bowen,-20.0167,148.2333,81.81,72,2,7.87,AU,1680749339
152,rahon,31.05,76.1167,75.97,30,66,1.83,IN,1680749387
153,kahului,20.8947,-156.47,79.97,70,0,23.02,US,1680749356
154,presidencia roque saenz pena,-26.7852,-60.4388,66.47,91,100,4.47,AR,1680749387
155,pevek,69.7008,170.3133,0.34,76,7,1.52,RU,1680749355
156,bambous virieux,-20.3428,57.7575,75.22,94,20,2.3,MU,1680749334
157,tual,-5.6667,132.75,80.08,84,100,19.75,ID,1680749342
158,vera cruz,-12.6333,-41.0333,71.17,95,93,1.66,BR,1680749211
159,maumere,-8.6199,122.2111,83.98,70,94,1.45,ID,1680749388
160,aleksandrovka,46.8383,32.7612,39.13,91,100,16.53,UA,1680749388
161,marovoay,-16.1,46.6333,73.9,94,98,5.12,MG,1680749388
162,saskylakh,71.9167,114.0833,4.89,91,100,7.25,RU,1680749339
163,labuhan,-6.8844,112.2051,84.42,70,62,6.02,ID,1680749362
164,xinye,32.5186,112.3522,61.11,37,100,14.9,CN,1680749388
165,cherskiy,68.75,161.3,24.17,75,20,7.85,RU,1680749352
166,husavik,66.0449,-17.3389,30.24,96,100,3.15,IS,1680749338
167,san patricio,28.017,-97.5169,65.17,56,100,19.44,US,1680749364
168,carnarvon,-24.8667,113.6333,76.73,53,1,12.77,AU,1680749333
169,muzhi,65.3667,64.6667,-1.61,81,98,10.89,RU,1680749358
170,isangel,-19.55,169.2667,83.97,72,0,15.03,VU,1680749341
171,leningradskiy,69.3833,178.4167,-3.84,91,27,9.08,RU,1680749328
172,pishva,35.308,51.7267,62.02,29,19,1.97,IR,1680749388
173,hajiganj,23.2511,90.8592,85.28,63,0,5.1,BD,1680749389
174,shingu,33.7333,135.9833,62.73,90,100,10.69,JP,1680749389
175,fortuna,40.5982,-124.1573,50.67,75,97,4.29,US,1680749332
176,ayr,55.4627,-4.6339,47.32,93,75,8.05,GB,1680749219
177,faya,18.3851,42.4509,55.92,75,81,2.01,SA,1680749367
178,mananjary,-21.2167,48.3333,73.98,91,100,3.22,MG,1680749389
179,sao jose dos pinhais,-25.5347,-49.2064,63.25,68,75,4.61,BR,1680749389
180,yumen,40.2833,97.2,42.62,15,0,4.14,CN,1680749389
181,batemans bay,-35.7167,150.1833,71.1,53,98,8.46,AU,1680749389
182,tandil,-37.3217,-59.1332,55.6,95,31,9.17,AR,1680749386
183,tay ninh,11.3,106.1,91.8,46,12,7.27,VN,1680749389
184,mount gambier,-37.8333,140.7667,77.31,32,99,3.89,AU,1680749362
185,bredasdorp,-34.5322,20.0403,63.93,66,0,3.2,ZA,1680749331
186,poum,-20.2333,164.0167,79.88,74,23,17.54,NC,1680749389
187,san jeronimo,-11.9472,-75.2829,49.06,87,98,3.0,PE,1680749375
188,santa helena de goias,-17.8136,-50.5969,68.81,84,28,1.68,BR,1680749327
189,lalmohan,22.3384,90.7419,82.63,74,2,4.12,BD,1680749390
190,pengcheng,36.4311,114.17,60.91,25,34,15.64,CN,1680749390
191,mutare,-18.9707,32.6709,56.88,97,61,0.07,ZW,1680749390
192,palmer,42.1584,-72.3287,41.83,85,100,6.91,US,1680749390
193,katsuura,35.1333,140.3,68.02,73,100,24.81,JP,1680749390
194,fethiye,36.6217,29.1164,44.47,74,44,4.9,TR,1680749390
195,vardo,70.3705,31.1107,33.78,80,20,20.71,NO,1680749390
196,fuerte olimpo,-21.0415,-57.8738,69.57,98,100,2.8,PY,1680749390
197,priladozhskiy,59.85,31.4833,33.84,95,100,5.37,RU,1680749390
198,pisco,-13.7,-76.2167,77.05,78,0,3.44,PE,1680749361
199,vestmanna,62.1564,-7.1664,43.72,100,100,12.66,FO,1680749390
200,clyde river,70.4692,-68.5914,-14.57,76,75,6.91,CA,1680749336
201,binga,-17.6203,27.3414,69.96,68,60,3.94,ZW,1680749390
202,sibolga,1.7427,98.7792,83.39,66,96,1.34,ID,1680749370
203,tucuma,-0.1833,-50.05,75.09,88,100,6.33,BR,1680749391
204,yuzhou,34.1628,113.4639,59.7,28,100,22.08,CN,1680749391
205,upernavik,72.7868,-56.1549,-18.65,100,100,3.47,GL,1680749333
206,amuntai,-2.4177,115.2494,85.68,73,65,1.63,ID,1680749391
207,byron bay,-28.65,153.6167,77.7,69,73,10.6,AU,1680749268
208,cayenne,4.9333,-52.3333,77.04,78,0,4.61,GF,1680749332
209,lagoa,39.05,-27.9833,58.62,88,59,7.43,PT,1680749365
210,gradistea,44.2333,27.2167,40.1,73,100,8.01,RO,1680749391
211,mrakovo,52.7161,56.6244,38.77,84,39,2.62,RU,1680749391
212,omboue,-1.5746,9.2618,78.58,87,100,6.53,GA,1680749391
213,esperance,-33.8667,121.9,66.16,64,85,17.18,AU,1680749338
214,bacolod,10.6667,122.95,86.07,52,50,10.89,PH,1680749391
215,oksfjord,70.2396,22.3479,39.38,82,100,10.22,NO,1680749391
216,bethel,41.3712,-73.414,47.64,89,100,4.61,US,1680749325
217,dunedin,-45.8742,170.5036,47.8,70,85,15.01,NZ,1680749391
218,totness,5.8833,-56.3167,77.04,78,42,10.4,SR,1680749391
219,evensk,61.95,159.2333,23.56,83,100,2.84,RU,1680749330
220,kerrville,30.0474,-99.1403,62.94,33,40,6.91,US,1680749392
221,sechelt,49.4664,-123.7694,48.81,69,100,7.92,CA,1680749127
222,cap malheureux,-19.9842,57.6142,75.47,77,7,1.99,MU,1680749336
223,anau,-16.5167,-151.7333,83.23,68,11,6.15,PF,1680749392
224,bera,24.0833,89.6167,84.22,51,0,2.73,BD,1680749392
225,gangtok,27.3333,88.6167,62.85,41,2,2.55,IN,1680749392
226,yulara,-25.2406,130.9889,88.59,22,0,12.91,AU,1680749327
227,geraldton,-28.7667,114.6,79.21,29,0,12.66,AU,1680749341
228,darnah,32.767,22.6367,57.76,70,89,12.95,LY,1680749377
229,alzamay,55.5562,98.6644,30.85,65,100,5.32,RU,1680749392
230,auki,-8.7676,160.7034,85.8,64,100,5.1,SB,1680749368
231,kihei,20.785,-156.4656,79.97,76,0,23.02,US,1680749392
232,barcelos,41.5388,-8.6151,56.84,64,40,4.34,PT,1680749392
233,biltine,14.5333,20.9167,82.8,11,57,13.42,TD,1680749392
234,lathi,21.7167,71.3833,79.65,42,27,9.78,IN,1680749392
235,mackenzie,55.2999,-123.1698,43.02,42,75,9.22,CA,1680749128
236,nantucket,41.2835,-70.0995,51.15,98,100,0.0,US,1680749393
237,marsa matruh,31.3525,27.2453,53.8,87,0,3.44,EG,1680749393
238,pacific grove,36.6177,-121.9166,55.35,79,0,14.0,US,1680749330
239,sioux lookout,50.1001,-91.917,14.07,85,100,6.91,CA,1680749393
240,kavieng,-2.5744,150.7967,82.44,77,87,8.63,PG,1680749393
241,tocache,-8.1842,-76.5125,70.38,98,81,0.69,PE,1680749393
242,bama,11.5221,13.6856,78.31,12,99,3.33,NG,1680749393
243,pangnirtung,66.1451,-65.7125,-2.25,85,100,3.67,CA,1680749393
244,vila,42.0304,-8.1588,45.48,69,55,4.12,PT,1680749352
245,jitauna,-14.0189,-39.8889,70.77,99,91,0.56,BR,1680749393
246,willmar,45.1219,-95.0433,24.82,80,100,24.16,US,1680749393
247,saint george,37.1041,-113.5841,48.79,25,0,12.66,US,1680749129
248,taoudenni,22.6783,-3.9836,70.41,28,0,8.57,ML,1680749394
249,aswan,24.0934,32.907,67.3,22,0,5.75,EG,1680749394
250,ekhabi,53.5102,142.9671,36.64,63,3,8.95,RU,1680749394
251,kingsland,30.8,-81.6898,75.13,83,60,5.28,US,1680749347
252,mitsamiouli,-11.3847,43.2844,80.15,76,29,4.03,KM,1680749394
253,haines junction,60.7522,-137.5108,39.15,56,100,4.61,CA,1680749056
254,alegrete,-29.7831,-55.7919,69.6,70,100,13.71,BR,1680749394
255,bubaque,11.2833,-15.8333,77.43,72,4,16.04,GW,1680749372
256,batu,-7.87,112.5283,77.86,67,68,2.15,ID,1680749394
257,mancio lima,-7.6142,-72.8958,71.58,98,93,2.35,BR,1680749394
258,salalah,17.0151,54.0924,78.89,47,0,2.3,OM,1680749332
259,apiai,-24.5094,-48.8425,65.08,84,96,1.99,BR,1680749394
260,longyearbyen,78.2186,15.6401,28.24,80,75,3.44,SJ,1680749340
261,slave lake,55.2834,-114.769,40.98,52,0,6.91,CA,1680749394
262,alekseyevka,50.6309,38.6903,48.38,81,100,8.41,RU,1680749394
263,christchurch,-43.5333,172.6333,57.4,72,100,14.97,NZ,1680749373
264,klyuchi,52.2667,79.1667,44.74,46,4,7.14,RU,1680749395
265,nanortalik,60.1432,-45.2371,30.67,96,100,3.27,GL,1680749335
266,port macquarie,-31.4333,152.9167,76.89,60,96,8.08,AU,1680749395
267,bondoukou,8.0333,-2.8,74.12,89,97,3.06,CI,1680749395
268,bridlington,54.0831,-0.1919,48.88,98,100,10.63,GB,1680749395
269,bonthe,7.5264,-12.505,77.9,88,92,3.71,SL,1680749395
270,annau,37.8876,58.516,47.7,66,20,2.3,TM,1680749395
271,marfino,55.7028,37.3822,41.34,78,0,8.95,RU,1680749395
272,luanda,-8.8368,13.2343,78.24,84,100,3.24,AO,1680749395
273,provideniya,64.3833,-173.3,6.91,66,20,11.18,RU,1680749347
274,beian,63.6559,9.5683,43.02,52,0,16.11,NO,1680749395
275,champerico,14.3,-91.9167,83.8,70,69,8.43,GT,1680749395
276,batagay-alyta,67.8006,130.4114,3.4,77,100,1.72,RU,1680749395
277,salinas,36.6777,-121.6555,56.21,74,0,12.66,US,1680749282
278,iguape,-24.7081,-47.5553,72.1,85,27,4.52,BR,1680749396
279,grand-lahou,5.1367,-5.0242,79.03,89,18,6.11,CI,1680749396
280,suoyarvi,62.0833,32.35,20.48,100,95,4.32,RU,1680749396
281,ilulissat,69.2167,-51.1,-19.71,93,8,4.92,GL,1680749362
282,erenhot,43.6475,111.9767,33.57,44,28,19.3,CN,1680749396
283,kununurra,-15.7667,128.7333,91.38,62,40,5.75,AU,1680749369
284,yerbogachen,61.2767,108.0108,20.71,89,100,12.86,RU,1680749396
285,guerrero negro,27.9769,-114.0611,59.2,61,0,18.39,MX,1680749346
286,chkalovsk,56.7647,43.2433,36.32,89,100,10.51,RU,1680749396
287,agua verde,22.9,-106.05,69.49,65,44,11.48,MX,1680749396
288,thompson,55.7435,-97.8558,24.96,39,75,4.61,CA,1680749337
289,zaozerne,45.1582,33.2787,42.28,86,100,21.25,UA,1680749396
290,grand forks,47.9417,-97.4337,21.13,80,100,20.71,US,1680749230
291,srednekolymsk,67.45,153.6833,23.0,72,18,3.67,RU,1680749335
292,mehamn,71.0357,27.8492,37.31,75,100,19.57,NO,1680749366
293,ostrovnoy,68.0531,39.5131,19.09,95,98,9.82,RU,1680749356
294,oriximina,-1.7656,-55.8661,74.86,93,100,3.65,BR,1680749397
295,bereda,43.2686,-7.5406,41.58,100,0,2.66,ES,1680749397
296,falam,22.9167,93.6833,76.33,34,3,2.66,MM,1680749397
297,impfondo,1.6381,18.0667,72.21,92,95,4.36,CG,1680749341
298,murayama,38.5193,140.3346,62.85,55,75,2.3,JP,1680749397
299,cotonou,6.3654,2.4183,82.38,83,40,11.5,BJ,1680749397
300,zhezkazgan,47.8043,67.7144,39.18,48,89,11.18,KZ,1680749351
301,vallenar,-28.5708,-70.7581,67.06,57,0,1.41,CL,1680749397
302,shache,38.4167,77.2406,46.38,14,85,4.52,CN,1680749397
303,lakefield,43.6775,-95.1717,26.44,72,0,21.85,US,1680749397
304,houma,29.5958,-90.7195,77.0,90,75,6.91,US,1680749397
305,magistralnyy,56.1725,107.4458,21.42,66,95,5.12,RU,1680749397
306,cedar city,37.6775,-113.0619,29.37,55,0,4.61,US,1680749397
307,savalou,7.9281,1.9756,78.39,73,53,4.05,BJ,1680749397
308,laguna,38.421,-121.4238,61.09,44,0,4.61,US,1680749346
309,gondanglegi,-7.7479,112.0132,85.24,68,31,6.46,ID,1680749398
310,suda,59.1525,37.5582,28.51,96,16,6.51,RU,1680749398
311,racine,42.7495,-88.0751,39.42,70,0,13.8,US,1680749206
312,lere,10.387,8.5726,74.48,11,100,2.19,NG,1680749398
313,la asuncion,11.0333,-63.8628,78.53,83,23,17.27,VE,1680749398
314,belokurikha,51.9959,84.9896,44.83,58,13,1.16,RU,1680749398
315,bhachau,23.2833,70.35,76.39,46,54,10.92,IN,1680749100
316,tucupita,9.0622,-62.051,73.26,88,82,5.35,VE,1680749398
317,saldanha,-33.0117,17.9442,65.48,65,0,6.35,ZA,1680749333
318,frisco,33.1507,-96.8236,60.24,46,5,10.6,US,1680749397
319,labytnangi,66.6572,66.4183,-8.48,85,93,7.47,RU,1680749398
320,port blair,11.6667,92.75,86.04,62,40,5.75,IN,1680749338
321,bilma,18.6853,12.9164,81.1,8,100,9.17,NE,1680749398
322,caluquembe,-13.7833,14.6833,58.21,89,100,4.27,AO,1680749398
323,orangeburg,33.4918,-80.8557,75.49,81,0,8.05,US,1680749399
324,akle,15.0482,121.0733,85.8,39,59,4.56,PH,1680749399
325,sakakah,29.9697,40.2064,60.37,39,0,6.35,SA,1680749399
326,caravelas,-17.7125,-39.2481,73.89,93,24,2.42,BR,1680749334
327,khani,41.9563,42.9566,36.97,90,79,2.1,GE,1680749399
328,togur,58.3631,82.8265,35.73,83,100,12.48,RU,1680749399
329,omsukchan,62.5333,155.8,15.66,82,81,5.08,RU,1680749377
330,nkhata bay,-11.6066,34.2907,72.32,87,100,5.44,MW,1680749399
331,caibarien,22.5206,-79.4669,76.32,80,44,17.13,CU,1680749113
332,san cristobal,7.7669,-72.225,73.58,79,47,0.76,VE,1680749335
333,korla,41.7597,86.1469,43.54,16,72,5.28,CN,1680749327
334,challapata,-18.9,-66.7667,45.9,34,38,6.98,BO,1680749399
335,konevo,62.1215,39.3192,24.1,98,98,3.29,RU,1680749399
336,pemangkat,1.1667,108.9667,81.5,77,98,5.86,ID,1680749399
337,yudong,29.385,106.5194,61.39,75,100,4.72,CN,1680749399
338,san juan,-31.5375,-68.5364,71.74,56,39,5.3,AR,1680749400
339,sao miguel do araguaia,-13.275,-50.1628,73.96,81,63,3.02,BR,1680749400
340,iralaya,15.0,-83.2333,78.37,79,4,12.19,HN,1680749339
341,hofn,64.2539,-15.2082,41.49,78,74,4.54,IS,1680749340
342,guzelyurt,38.2772,34.3719,38.84,85,80,3.58,TR,1680749400
343,lorengau,-2.0226,147.2712,84.88,70,60,5.46,PG,1680749354
344,atambua,-9.1061,124.8925,79.92,73,100,1.36,ID,1680749400
345,sur,22.5667,59.5289,76.6,55,0,3.71,OM,1680749329
346,voskresenskoye,56.8381,45.4317,38.79,84,100,9.44,RU,1680749400
347,kokstad,-30.5472,29.4241,49.96,77,0,3.94,ZA,1680749401
348,sinnamary,5.3833,-52.95,76.42,75,75,9.73,GF,1680749401
349,buala,-8.145,159.5921,84.4,72,100,2.82,SB,1680749334
350,dutlwe,-23.9833,23.9,61.52,72,0,8.34,BW,1680749401
351,hohhot,40.8106,111.6522,37.69,75,20,4.47,CN,1680749401
352,ocala,29.1872,-82.1401,77.92,73,100,1.99,US,1680749337
353,richards bay,-28.783,32.0377,68.13,78,94,5.26,ZA,1680749332
354,lodja,-3.4833,23.4333,67.6,99,99,1.88,CD,1680749401
355,noyabrsk,63.1994,75.4507,20.05,93,100,22.28,RU,1680749401
356,acarau,-2.8856,-40.12,76.71,85,99,5.86,BR,1680749368
357,neiafu,-18.65,-173.9833,84.88,79,40,9.22,TO,1680749401
358,narok,-1.0783,35.8601,54.66,94,86,2.68,KE,1680749402
359,marsabit,2.3284,37.9899,64.6,86,95,11.45,KE,1680749402
360,portsmouth,50.799,-1.0913,51.13,97,100,14.03,GB,1680749402
361,tinqueux,49.25,3.9833,39.27,87,0,5.75,FR,1680749402
362,port hedland,-20.3167,118.5667,93.25,55,7,8.05,AU,1680749337
363,abadiania,-16.2042,-48.7069,67.12,92,12,1.34,BR,1680749403
364,hambantota,6.1241,81.1185,80.94,94,20,4.61,LK,1680749349
365,qasigiannguit,68.8193,-51.1922,-18.02,97,53,4.92,GL,1680749376
366,punta alta,-38.8759,-62.0736,68.07,57,100,19.19,AR,1680749403
367,kaitangata,-46.2817,169.8464,50.94,72,90,14.12,NZ,1680749332
368,abu samrah,35.3029,37.1841,51.31,83,0,15.3,SY,1680749405
369,edson,53.5835,-116.4356,41.14,33,0,6.91,CA,1680749406
370,san-pedro,4.7485,-6.6363,78.28,88,40,5.06,CI,1680749406
371,muhos,64.808,25.9931,22.78,98,72,4.9,FI,1680749406
372,berdigestyakh,62.0989,126.6992,5.34,78,100,9.91,RU,1680749406
373,zharkent,44.1628,80.0,57.88,20,76,4.74,KZ,1680749406
374,pundaguitan,6.3711,126.1689,79.84,77,83,1.83,PH,1680749406
375,marand,38.4329,45.7749,50.11,60,1,4.05,IR,1680749407
376,artesia,33.8658,-118.0831,64.54,44,0,13.8,US,1680749407
377,tashara,55.5195,83.5094,37.0,73,83,11.88,RU,1680749407
378,ereymentau,51.6199,73.1033,47.26,39,0,5.82,KZ,1680749407
379,itarema,-2.9248,-39.9167,75.6,88,100,5.53,BR,1680749137
380,quatre cocos,-20.2078,57.7625,75.09,80,30,7.4,MU,1680749407
381,chiang khong,20.2613,100.4046,92.64,19,4,1.92,TH,1680749407
382,nemuro,43.3236,145.575,39.74,90,100,8.95,JP,1680749358
383,kamina,-8.7386,24.9906,64.0,99,100,3.06,CD,1680749408
384,henties bay,-22.116,14.2845,62.89,87,43,5.97,NA,1680749376
385,saint-pierre,-21.3393,55.4781,74.88,69,45,5.75,RE,1680749408
386,belyy yar,53.6039,91.3903,30.09,43,0,6.71,RU,1680749371
387,vagur,61.4732,-6.8119,44.82,91,85,7.4,FO,1680749408
388,matara,5.9485,80.5353,82.24,74,1,2.86,LK,1680749352
389,birobidzhan,48.8,132.95,48.18,24,100,8.34,RU,1680749409
390,karratha,-20.7377,116.8463,90.32,43,23,6.13,AU,1680749409
391,solnechnyy,50.7214,136.6319,41.61,41,100,5.44,RU,1680749362
392,grez-doiceau,50.739,4.6983,44.55,62,75,8.05,BE,1680749409
393,shancheng,34.7953,116.0817,60.28,59,100,11.18,CN,1680749409
394,puerto colombia,10.9878,-74.9547,78.89,85,1,29.39,CO,1680749409
395,shirokiy,49.758,129.523,48.09,24,100,8.57,RU,1680749409
396,bandundu,-3.3167,17.3667,72.25,98,100,3.44,CD,1680749409
397,durant,33.994,-96.3708,55.56,43,0,9.22,US,1680749410
398,jiuquan,39.7432,98.5174,42.3,18,0,3.47,CN,1680749410
399,sechura,-5.5569,-80.8222,81.84,71,86,8.66,PE,1680749410
400,benidorm,38.5382,-0.131,57.78,64,0,0.87,ES,1680749410
401,san quintin,30.4833,-115.95,55.69,67,1,10.11,MX,1680749349
402,orumiyeh,37.5527,45.0761,53.15,26,20,18.41,IR,1680749410
403,makat,47.6469,53.3463,55.76,37,8,6.42,KZ,1680749410
404,adrar,20.5022,-10.0711,62.76,41,4,9.71,MR,1680749342
405,coxim,-18.5067,-54.76,73.65,84,81,4.36,BR,1680749410
406,honiara,-9.4333,159.95,83.35,81,100,4.61,SB,1680749340
407,dakar,14.6937,-17.4441,72.48,77,98,19.01,SN,1680749395
408,ararat,39.8317,44.7049,48.54,54,10,2.08,AM,1680749411
409,nabire,-3.3667,135.4833,75.65,91,100,2.26,ID,1680749328
410,taksimo,56.3444,114.8794,16.7,45,53,4.05,RU,1680749411
411,grand gaube,-20.0064,57.6608,75.38,77,10,1.99,MU,1680749331
412,valenza,45.0141,8.6414,40.08,68,9,4.23,IT,1680749411
413,broome,42.2506,-75.833,65.01,84,100,9.22,US,1680749411
414,moose factory,51.2585,-80.6094,28.4,80,100,14.97,CA,1680749326
415,stornoway,58.2093,-6.3865,46.36,94,100,5.75,GB,1680749412
416,uthal,25.8072,66.6219,74.84,56,0,3.78,PK,1680749412
417,margate,51.3813,1.3862,47.89,90,100,3.0,GB,1680749356
418,nyurba,63.2842,118.3319,11.3,88,100,10.36,RU,1680749412
419,edgewater,28.9889,-80.9023,75.29,87,0,8.05,US,1680749366
420,kandry,54.5667,54.1167,42.66,84,0,4.74,RU,1680749412
421,quang ngai,15.1167,108.8,87.48,64,29,7.29,VN,1680749412
422,sambava,-14.2667,50.1667,74.34,89,37,6.46,MG,1680749413
423,curuca,-0.7289,-47.8481,74.82,93,100,4.81,BR,1680749413
424,parrita,9.5201,-84.3225,80.74,76,14,2.13,CR,1680749413
425,anadyr,64.75,177.4833,7.3,85,75,4.47,RU,1680749413
426,port lincoln,-34.7333,135.8667,73.02,41,4,15.21,AU,1680749413
427,abonnema,4.7084,6.7931,78.51,90,84,4.88,NG,1680749414
428,ponta delgada,37.7333,-25.6667,57.92,94,75,2.3,PT,1680749414
429,caraballeda,10.6112,-66.8522,80.37,80,80,10.36,VE,1680749414
430,port hardy,50.6996,-127.4199,44.78,76,100,26.46,CA,1680749327
431,marshall,34.3834,-86.3333,69.4,84,0,4.61,US,1680749414
432,port elizabeth,-33.918,25.5701,60.31,97,5,4.61,ZA,1680749211
433,gaoua,10.2992,-3.2508,78.12,71,100,3.42,BF,1680749414
434,nakuru,-0.2833,36.0667,56.57,92,97,1.81,KE,1680749415
435,ozernovskiy,51.5,156.5167,31.53,78,7,10.78,RU,1680749415
436,naze,28.3667,129.4833,70.72,87,100,14.85,JP,1680749339
437,mundo nuevo,18.7,-95.5,83.75,53,37,9.35,MX,1680749415
438,kelapa sawit,1.6698,103.5327,85.08,72,70,7.27,MY,1680749415
439,maniitsoq,65.4167,-52.9,21.15,43,21,11.68,GL,1680749337
440,paamiut,61.994,-49.6678,28.44,80,9,5.19,GL,1680749335
441,nishihara,26.1842,127.7558,76.66,71,75,17.27,JP,1680749339
442,liverpool,53.4106,-2.9779,50.65,95,75,5.01,GB,1680749416
443,comodoro rivadavia,-45.8667,-67.5,66.06,42,0,19.57,AR,1680749416
444,soeng sang,14.4264,102.4606,94.84,38,96,5.91,TH,1680749416
445,bandarbeyla,9.4942,50.8122,80.74,79,15,6.17,SO,1680749334
446,boyolangu,-8.1181,111.8935,84.34,68,52,6.64,ID,1680749416
447,ormara,25.2088,64.6357,74.75,66,0,3.02,PK,1680749416
448,harstad,68.799,16.5293,37.15,79,100,8.23,NO,1680749416
449,acapulco,16.8634,-99.8901,80.42,74,20,3.44,MX,1680749129
450,pangody,65.85,74.4859,-10.08,88,99,20.71,RU,1680749416
451,nancha,47.1333,129.2667,52.75,16,76,3.91,CN,1680749417
452,asau,46.4333,26.4,29.32,97,100,4.38,RO,1680749367
453,morondava,-20.2833,44.2833,74.61,89,82,6.17,MG,1680749376
454,hato mayor,18.7629,-69.256,71.02,85,0,8.19,DO,1680749417
455,sitka,57.0531,-135.33,44.49,61,100,19.57,US,1680749333
456,akonolinga,3.7667,12.25,69.26,98,100,2.21,CM,1680749417
457,murwillumbah,-28.3167,153.4,78.98,61,75,10.36,AU,1680749417
458,tonj,7.2737,28.6822,79.23,49,100,2.77,SS,1680749417
459,kargasok,59.0556,80.8572,35.6,87,100,11.1,RU,1680749418
460,keelung,25.1283,121.7419,84.06,74,79,2.53,TW,1680749418
461,praya,14.9215,-23.5087,72.14,78,20,21.85,CV,1680749418
462,pimenta bueno,-11.6725,-61.1936,71.04,98,99,2.35,BR,1680749418
463,sao filipe,14.8961,-24.4956,72.12,81,100,8.39,CV,1680749366
464,kerema,-7.9631,145.7785,85.41,67,99,6.35,PG,1680749347
465,antalaha,-14.9003,50.2788,73.63,86,16,5.5,MG,1680749331
466,perrelos,10.1169,123.6738,85.71,62,84,2.68,PH,1680749419
467,roebourne,-20.7833,117.1333,91.09,42,15,3.78,AU,1680749419
468,alice springs,-23.7,133.8833,87.35,40,75,12.66,AU,1680749334
469,california city,35.1258,-117.9859,56.79,28,0,8.05,US,1680749419
470,diu,20.7141,70.9822,80.65,46,30,6.2,IN,1680749419
471,verin,41.9415,-7.4381,51.57,68,34,2.46,ES,1680749420
472,jumla,29.2747,82.1838,55.4,21,0,1.54,NP,1680749369
473,north bend,43.4065,-124.2243,48.24,94,100,6.91,US,1680749420
474,kieta,-6.2167,155.6333,84.31,73,100,5.17,PG,1680749330
475,abha,18.2164,42.5053,55.65,88,20,6.91,SA,1680749420
476,hamilton,39.1834,-84.5333,62.06,95,100,10.36,US,1680749120
477,micheweni,-4.9667,39.8333,78.67,81,100,1.59,TZ,1680749420
478,porto novo,6.4965,2.6036,82.22,84,71,5.7,BJ,1680749420
479,kodinsk,58.6881,99.1844,27.19,70,100,9.82,RU,1680749420
480,prince rupert,54.3161,-130.3201,44.29,87,100,34.52,CA,1680749340
481,spas-klepiki,55.1347,40.1767,39.92,92,100,10.58,RU,1680749421
482,narsaq,60.9167,-46.05,32.22,93,92,4.14,GL,1680749331
483,buinsk,54.95,48.2833,43.86,91,34,12.66,RU,1680749421
484,york,40.1254,-77.0,74.7,69,75,9.22,US,1680749421
485,buraydah,26.326,43.975,66.65,17,40,9.42,SA,1680749421
486,boden,65.8252,21.6886,15.8,95,100,5.03,SE,1680749421
487,marzuq,14.4,46.4667,69.94,52,44,5.84,YE,1680749421
488,tessalit,20.1986,1.0114,75.87,10,22,2.66,ML,1680749422
489,nouadhibou,20.931,-17.0347,64.38,77,6,20.71,MR,1680749372
490,guiratinga,-16.3494,-53.7583,73.74,74,83,3.96,BR,1680749422
491,winchester,51.0651,-1.3187,50.68,98,100,6.91,GB,1680749124
492,baykit,61.67,96.37,25.12,95,100,10.11,RU,1680749422
493,lookan,5.037,120.1027,84.0,69,100,10.11,PH,1680749422
494,neuenburg,46.9918,6.931,36.77,78,0,3.44,CH,1680749422
495,kailua,21.4022,-157.7394,82.38,74,75,14.97,US,1680749422
496,bamberg,49.8795,10.8863,29.53,71,25,3.24,DE,1680749422
497,amos,48.5669,-78.1162,27.7,95,100,14.65,CA,1680749423
498,jardim,-21.4803,-56.1381,69.53,92,100,2.44,BR,1680749423
499,aykhal,66.0,111.5,15.33,86,100,20.2,RU,1680749341
500,shiyan,32.6475,110.7781,60.71,28,47,12.93,CN,1680749423
501,aksarka,66.5606,67.7975,-11.94,87,6,17.36,RU,1680749334
502,young,-32.6833,-57.6333,67.33,61,100,12.97,UY,1680749423
503,talnakh,69.4865,88.3972,-20.79,92,34,13.67,RU,1680749371
504,sabzevar,36.2126,57.6819,58.26,31,0,1.21,IR,1680749423
505,quatre soeurs,-20.2992,57.7706,75.34,94,20,2.3,MU,1680749423
506,clinton,42.587,-82.9199,64.42,82,40,13.8,US,1680749424
507,iberia,29.9502,-91.7507,78.87,83,0,8.05,US,1680749424
508,vanimo,-2.6741,141.3028,84.61,70,100,3.47,PG,1680749355
509,obo,5.3998,26.4869,69.82,75,99,3.78,CF,1680749424
510,la ronge,55.1001,-105.2842,26.85,33,20,1.14,CA,1680749424
511,ostersund,63.1792,14.6357,28.85,64,100,6.91,SE,1680749424
512,tura,25.5198,90.2201,81.27,49,0,5.19,IN,1680749371
513,takoradi,4.8845,-1.7554,79.05,87,70,5.23,GH,1680749424
514,andilamena,-17.0167,48.5833,65.8,90,100,3.27,MG,1680749425
515,changji,44.0167,87.3167,52.59,13,0,2.24,CN,1680749425
516,tautira,-17.7333,-149.15,82.67,75,89,7.34,PF,1680749371
517,ambilobe,-13.2,49.05,71.37,95,29,2.91,MG,1680749425
518,tiarei,-17.5333,-149.3333,86.02,74,71,6.6,PF,1680749329
519,gorontalo,0.5412,123.0595,87.82,63,92,4.16,ID,1680749425
520,sungaipenuh,-2.0833,101.3833,76.15,59,99,3.47,ID,1680749425
521,palana,59.1167,159.9667,24.42,74,100,20.42,RU,1680749425
522,fairbanks,64.8378,-147.7164,25.61,67,100,12.66,US,1680749379
523,bambanglipuro,-7.95,110.2833,82.9,73,48,6.69,ID,1680749426
524,sangar,63.9242,127.4739,0.66,80,100,11.16,RU,1680749426
525,rincon,32.296,-81.2354,73.36,88,40,8.05,US,1680749371
526,bardiyah,31.7561,25.0865,58.41,68,0,5.01,LY,1680749426
527,porto santo,33.072,-16.3415,61.18,82,20,16.11,PT,1680749426
528,constitucion,-35.3333,-72.4167,56.44,65,39,6.53,CL,1680749426
529,bilibino,68.0546,166.4372,15.35,76,37,2.13,RU,1680749345
530,san vicente,-26.6167,-54.1333,61.38,99,100,3.67,AR,1680749426
531,pacifica,37.6138,-122.4869,54.57,80,75,18.41,US,1680749193
532,dubbo,-32.25,148.6167,75.33,43,72,10.36,AU,1680749369
533,tubuala,9.5167,-79.0333,78.46,87,98,13.06,PA,1680749427
534,mirnyy,62.5353,113.9611,10.24,60,100,13.0,RU,1680749427
535,zyryanka,65.75,150.85,20.35,80,100,3.27,RU,1680749333
536,aklavik,68.2191,-135.0107,6.06,93,100,8.95,CA,1680749376
537,warri,5.5167,5.75,79.02,88,96,3.62,NG,1680749427
538,basco,20.4487,121.9702,77.83,74,100,10.11,PH,1680749427
539,freeport,40.6576,-73.5832,51.78,91,100,8.05,US,1680749427
540,luena,-11.7833,19.9167,62.74,96,100,1.77,AO,1680749427
541,kemijarvi,66.7131,27.4306,30.67,86,100,7.83,FI,1680749427
542,santa maria,-29.6842,-53.8069,69.1,78,75,10.36,BR,1680749210
543,tukrah,32.5341,20.5791,58.33,54,67,8.32,LY,1680749428
544,mosquera,4.7059,-74.2302,55.49,88,75,3.44,CO,1680749428
545,gimli,50.6336,-96.9907,19.42,93,100,16.11,CA,1680749338
546,mhango,-3.2833,32.85,62.82,95,100,0.6,TZ,1680749428
547,touros,-5.1989,-35.4608,76.48,90,100,12.15,BR,1680749340
548,astoria,46.1879,-123.8313,46.44,93,100,1.01,US,1680749428
549,umea,63.8284,20.2597,17.53,79,0,3.44,SE,1680749428
550,sabha,27.0377,14.4283,73.2,14,42,18.39,LY,1680749428
551,audru,58.4086,24.3739,35.96,100,100,5.75,EE,1680749428
552,poshekhonye,58.4993,39.1353,28.47,93,23,7.25,RU,1680749429
553,darab,28.7519,54.5444,62.24,36,0,2.19,IR,1680749429
554,north myrtle beach,33.816,-78.68,71.69,96,0,9.22,US,1680749429
555,sennoy,52.1509,46.9631,50.41,68,72,5.3,RU,1680749429
556,southbridge,42.0751,-72.0334,41.36,97,100,3.0,US,1680749429
557,dzaoudzi,-12.7887,45.2699,75.09,94,0,5.75,YT,1680749430
558,shuyskoye,59.3736,41.0305,28.9,87,98,8.75,RU,1680749430
